{
  "results": [
    {
      "fsq_id": "4c902d2504a1b60c9088a53e",
      "categories": [
        {
          "id": 13070,
          "name": "Argentinian Restaurant",
          "icon": {
            "prefix": "https://ss3.4sqi.net/img/categories_v2/food/argentinian_",
            "suffix": ".png"
          }
        },
        {
          "id": 13383,
          "name": "Steakhouse",
          "icon": {
            "prefix": "https://ss3.4sqi.net/img/categories_v2/food/steakhouse_",
            "suffix": ".png"
          }
        }
      ],
      "chains": [],
      "distance": 392,
      "geocodes": {
        "main": {
          "latitude": 19.38897,
          "longitude": -99.168217
        }
      },
      "location": {
        "address": "Adolfo Prieto 828",
        "country": "MX",
        "cross_street": "Av. Colonia del Valle",
        "formatted_address": "Adolfo Prieto 828 (Av. Colonia del Valle), 03100 Ciudad de México, Mexico City",
        "locality": "Mexico City",
        "neighborhood": ["Benito Juárez"],
        "postcode": "03100",
        "region": "Mexico City"
      },
      "name": "La Parrillita",
      "related_places": {},
      "timezone": "America/Mexico_City"
    },
    {
      "fsq_id": "5c01b764c66666002c2c172f",
      "categories": [
        {
          "id": 13263,
          "name": "Japanese Restaurant",
          "icon": {
            "prefix": "https://ss3.4sqi.net/img/categories_v2/food/japanese_",
            "suffix": ".png"
          }
        }
      ],
      "chains": [],
      "distance": 593,
      "geocodes": {
        "main": {
          "latitude": 19.380543,
          "longitude": -99.165942
        },
        "roof": {
          "latitude": 19.380543,
          "longitude": -99.165942
        }
      },
      "location": {
        "address": "Calle Matias Romero 332",
        "country": "MX",
        "cross_street": "Gabriel Mancera",
        "formatted_address": "Calle Matias Romero 332 (Gabriel Mancera), 03100 Ciudad de México, Mexico City",
        "locality": "Mexico City",
        "neighborhood": ["Del Valle Centro"],
        "postcode": "03100",
        "region": "Mexico City"
      },
      "name": "Tokio Inc",
      "related_places": {},
      "timezone": "America/Mexico_City"
    },
    {
      "fsq_id": "4b216521f964a5203c3b24e3",
      "categories": [
        {
          "id": 13046,
          "name": "Ice Cream Parlor",
          "icon": {
            "prefix": "https://ss3.4sqi.net/img/categories_v2/food/icecream_",
            "suffix": ".png"
          }
        },
        {
          "id": 13065,
          "name": "Restaurant",
          "icon": {
            "prefix": "https://ss3.4sqi.net/img/categories_v2/food/default_",
            "suffix": ".png"
          }
        }
      ],
      "chains": [],
      "distance": 787,
      "geocodes": {
        "main": {
          "latitude": 19.379042,
          "longitude": -99.170825
        },
        "roof": {
          "latitude": 19.379042,
          "longitude": -99.170825
        }
      },
      "location": {
        "address": "Pilares esq. Adolfo Prieto",
        "country": "MX",
        "cross_street": "Pilares",
        "formatted_address": "Pilares esq. Adolfo Prieto (Pilares), 03200 Ciudad de México, Mexico City",
        "locality": "Mexico City",
        "neighborhood": ["Benito Juárez"],
        "postcode": "03200",
        "region": "Mexico City"
      },
      "name": "Helados QBE",
      "related_places": {},
      "timezone": "America/Mexico_City"
    },
    {
      "fsq_id": "59b04a7e872f7d5434b94a2c",
      "categories": [
        {
          "id": 13306,
          "name": "Taco Restaurant",
          "icon": {
            "prefix": "https://ss3.4sqi.net/img/categories_v2/food/taco_",
            "suffix": ".png"
          }
        }
      ],
      "chains": [],
      "distance": 520,
      "geocodes": {
        "main": {
          "latitude": 19.390195,
          "longitude": -99.168161
        },
        "roof": {
          "latitude": 19.390195,
          "longitude": -99.168161
        }
      },
      "location": {
        "address": "Adolfo Prieto",
        "country": "MX",
        "cross_street": "Concepción Beistegui",
        "formatted_address": "Adolfo Prieto (Concepción Beistegui), 03100 Ciudad de México, Mexico City",
        "locality": "Mexico City",
        "neighborhood": ["Del Valle Norte"],
        "postcode": "03100",
        "region": "Mexico City"
      },
      "name": "Los Güeros de Bouturini",
      "related_places": {},
      "timezone": "America/Mexico_City"
    },
    {
      "fsq_id": "54ecf58f498ecc627cfc3f7a",
      "categories": [
        {
          "id": 13065,
          "name": "Restaurant",
          "icon": {
            "prefix": "https://ss3.4sqi.net/img/categories_v2/food/default_",
            "suffix": ".png"
          }
        }
      ],
      "chains": [],
      "distance": 462,
      "geocodes": {
        "main": {
          "latitude": 19.383778,
          "longitude": -99.171914
        },
        "roof": {
          "latitude": 19.383778,
          "longitude": -99.171914
        }
      },
      "location": {
        "address": "Calle Patricio Sanz 1102",
        "country": "MX",
        "cross_street": "Angel Urraza",
        "formatted_address": "Calle Patricio Sanz 1102 (Angel Urraza), 03100 Ciudad de México, Mexico City",
        "locality": "Mexico City",
        "neighborhood": ["Del Valle Centro"],
        "postcode": "03100",
        "region": "Mexico City"
      },
      "name": "Semillero",
      "related_places": {},
      "timezone": "America/Mexico_City"
    },
    {
      "fsq_id": "4bf5fa2c94b2a5939fcbacee",
      "categories": [
        {
          "id": 13263,
          "name": "Japanese Restaurant",
          "icon": {
            "prefix": "https://ss3.4sqi.net/img/categories_v2/food/japanese_",
            "suffix": ".png"
          }
        }
      ],
      "chains": [],
      "distance": 900,
      "geocodes": {
        "main": {
          "latitude": 19.392572,
          "longitude": -99.171709
        }
      },
      "location": {
        "address": "Torres Adalid 14",
        "country": "MX",
        "cross_street": "Av. Magdalena",
        "formatted_address": "Torres Adalid 14 (Av. Magdalena), 03100 Ciudad de México, Mexico City",
        "locality": "Mexico City",
        "neighborhood": ["Benito Juarez"],
        "postcode": "03100",
        "region": "Mexico City"
      },
      "name": "Suntory",
      "related_places": {},
      "timezone": "America/Mexico_City"
    },
    {
      "fsq_id": "59a0c64c1108ba0bf2822e06",
      "categories": [
        {
          "id": 13006,
          "name": "Beer Bar",
          "icon": {
            "prefix": "https://ss3.4sqi.net/img/categories_v2/nightlife/pub_",
            "suffix": ".png"
          }
        },
        {
          "id": 13065,
          "name": "Restaurant",
          "icon": {
            "prefix": "https://ss3.4sqi.net/img/categories_v2/food/default_",
            "suffix": ".png"
          }
        }
      ],
      "chains": [],
      "distance": 841,
      "geocodes": {
        "main": {
          "latitude": 19.392056,
          "longitude": -99.171971
        },
        "roof": {
          "latitude": 19.392056,
          "longitude": -99.171971
        }
      },
      "location": {
        "address": "Avenida Magdalena 311",
        "country": "MX",
        "cross_street": "Torres Adalid",
        "formatted_address": "Avenida Magdalena 311 (Torres Adalid), 03100 Ciudad de México, Mexico City",
        "locality": "Mexico City",
        "postcode": "03100",
        "region": "Mexico City"
      },
      "name": "Principia Tasting Room",
      "related_places": {
        "children": []
      },
      "timezone": "America/Mexico_City"
    },
    {
      "fsq_id": "4bf893188d30d13aad110118",
      "categories": [
        {
          "id": 13046,
          "name": "Ice Cream Parlor",
          "icon": {
            "prefix": "https://ss3.4sqi.net/img/categories_v2/food/icecream_",
            "suffix": ".png"
          }
        },
        {
          "id": 13065,
          "name": "Restaurant",
          "icon": {
            "prefix": "https://ss3.4sqi.net/img/categories_v2/food/default_",
            "suffix": ".png"
          }
        }
      ],
      "chains": [],
      "distance": 937,
      "geocodes": {
        "main": {
          "latitude": 19.386086,
          "longitude": -99.176995
        },
        "roof": {
          "latitude": 19.386086,
          "longitude": -99.176995
        }
      },
      "location": {
        "address": "Pennsylvania 255",
        "country": "MX",
        "cross_street": "Esq. con Eje 5 Sur (Av. San Antonio)",
        "formatted_address": "Pennsylvania 255 (Esq. con Eje 5 Sur (Av. San Antonio)), 03810 Ciudad de México, Mexico City",
        "locality": "Mexico City",
        "neighborhood": ["Benito Juárez"],
        "postcode": "03810",
        "region": "Mexico City"
      },
      "name": "Chiandoni",
      "related_places": {},
      "timezone": "America/Mexico_City"
    },
    {
      "fsq_id": "4e45c587c65bd6ffbe893936",
      "categories": [
        {
          "id": 13263,
          "name": "Japanese Restaurant",
          "icon": {
            "prefix": "https://ss3.4sqi.net/img/categories_v2/food/japanese_",
            "suffix": ".png"
          }
        }
      ],
      "chains": [],
      "distance": 988,
      "geocodes": {
        "main": {
          "latitude": 19.391496,
          "longitude": -99.174577
        },
        "roof": {
          "latitude": 19.391496,
          "longitude": -99.174577
        }
      },
      "location": {
        "address": "Arkansas 38",
        "country": "MX",
        "cross_street": "Nebraska",
        "formatted_address": "Arkansas 38 (Nebraska), 03810 Ciudad de México, Mexico City",
        "locality": "Mexico City",
        "neighborhood": ["Benito Juarez"],
        "postcode": "03810",
        "region": "Mexico City"
      },
      "name": "Nagaoka",
      "related_places": {},
      "timezone": "America/Mexico_City"
    },
    {
      "fsq_id": "5ca00f6cbed483002c45209f",
      "categories": [
        {
          "id": 13346,
          "name": "Paella Restaurant",
          "icon": {
            "prefix": "https://ss3.4sqi.net/img/categories_v2/food/paella_",
            "suffix": ".png"
          }
        }
      ],
      "chains": [],
      "distance": 1059,
      "geocodes": {
        "main": {
          "latitude": 19.391463,
          "longitude": -99.160079
        },
        "roof": {
          "latitude": 19.391463,
          "longitude": -99.160079
        }
      },
      "location": {
        "address": "Heriberto Frias 573",
        "country": "MX",
        "cross_street": "Luz Saviñon",
        "formatted_address": "Heriberto Frias 573 (Luz Saviñon), 03020 Ciudad de México, Ciudad de México",
        "locality": "Ciudad de México",
        "postcode": "03020",
        "region": "Ciudad de México"
      },
      "name": "Socarrat",
      "related_places": {},
      "timezone": "America/Mexico_City"
    }
  ],
  "context": {
    "geo_bounds": {
      "circle": {
        "center": {
          "latitude": 19.3853984,
          "longitude": -99.1680291
        },
        "radius": 600
      }
    }
  }
}
